{
  "users": [],
  "office_buildings": [
    {
      "building": {
        "id": 1,
        "location": "강남 1호점",
        "region": "서울시",
        "city": "관악구",
        "street": "강남대로 382",
        "address": "메리츠타워 17, 18층(메인라운지 17층)",
        "capacity": 550,
        "traffic_info": "강남역 4번출구 도보 3분",
        "latitude": "37.5258999",
        "longitude": "126.967444",
        "images": "/images/office",
        "service": [
          "라운지","폰부스","릴랙스룸","OA룸","스낵바","커피","맥주","우편함"
        ],
        "space": ["미팅룸 (4인)","미팅룸 (8인)","컨퍼런스룸","스튜디오"],
        "seat": [
          "오픈데스크","포커스데스크","1인실","모니터데스크"
        ]
      },
      "membership": {
        "id": 1,
        "location": "강남1호점",

        "type": "1일 패스",
        "duration": null,
        "start_date": "2024-05-20",
        "end_date": "2024-05-20",
        "price": 20000
      },
      "reservation": {
        "id": 1,
        "start_date": "2024-03-05",
        "end_date": "2024-03-06",
        "seat": [
          {
            "start_date": "2024-05-25",
            "end_date": "2024-05-27",
            "type": "오픈데스크",
            "code": "A01"
          }
        ],
        "space": [
          {
            "type": "컨퍼런스룸",
            "code": "E01",
            "start_date": "2024-05-20T10:00:00",
            "end_date": "2024-05-20T10:50:00",
            "price": 15000
          },
          {
            "type": "컨퍼런스룸",
            "code": "E02",
            "start_date": "2024-05-21T10:00:00",
            "end_date": "2024-05-21T10:50:00",
            "price": 15000
          }
        ]
      },

      "office_detail": {
        "office_building_id": 1,
        "open_desk": true,
        "partition": true,
        "isolation_room": true,
        "monitor_desk": true,
        "conf4": true,
        "conf8": true,
        "seminar_room": true,
        "studio": false,
        "lounge": true,
        "phone_booth": false,
        "relax_room": true,
        "oaroom": true,
        "snack_bar": true,
        "coffee": true,
        "postbox": false,
        "parking": true
      },

      "coworkers": [
        { "name": "김아무개" },
        { "name": "이용혁" },
        { "name": "채서영" },
        { "name": "장문용" },
        { "name": "김지혜" },
        { "name": "채은주" },
        { "name": "이사랑" }
      ],
      "reviews": {
        "review_count": 8,
        "avg_rating": 5,
        "reviews": [
          {
            "reviewer": "노찬영",
            "rating": 5,
            "content": "집가고싶다집가고싶다집가고싶다집가고싶다집가고...",
            "created_at": "2024-05-20"
          },
          {
            "reviewer": "노찬영2",
            "rating": 3,
            "content": "뉴진스 하우스위트 너무 좋아...",
            "created_at": "2024-05-18"
          },
          {
            "reviewer": "이아라",
            "rating": 4,
            "content": "Bad",
            "created_at": "2024-05-18"
          }
        ]
      },
      "clubs": [
        {
          "id": 1,
          "title": "얼렁뚱땅 3마이웨이",
          "category": "운동/스포츠",
          "created_at": "2024-05-19"
        },
        {
          "id": 2,
          "title": "마이웨이 3조",
          "category": "음악",
          "created_at": "2024-05-09"
        }
      ]
    },

    {
      "building": {
        "id": 2,
        "location": "강남2호점",
        "region": "서울시",
        "city": "강남구",
        "street": "강남대로 382",
        "adress": "메리츠타워 17, 18층(메인라운지 17층) ",
        "capacity": 300,
        "traffic_info": "강남역 4번출구 도보 3분",
        "latitude": "126.835464",
        "longitude": "37.5331134",
        "images": "/images/office"
      },
      "club_count": 10,
      "rating": {
        "avg_rating": 10,
        "count": 100
      }
    },
    {
      "building": {
        "id": 3,
        "location": "강남3호점",
        "region": "서울시",
        "city": "강남구",
        "street": "강남대로 382",
        "adress": "메리츠타워 17, 18층(메인라운지 17층) ",
        "capacity": 300,
        "traffic_info": "강남역 4번출구 도보 3분",
        "latitude": "126.9727572",
        "longitude": "37.5766109",
        "images": "imags_url"
      },
      "club_count": 10,
      "rating": {
        "avg_rating": 10,
        "count": 100
      }
    },

    {
      "building": {
        "id": 7,
        "location": "성남1호점",
        "region": "서울시",
        "city": "강남구",
        "street": "강남대로 382",
        "adress": "메리츠타워 17, 18층(메인라운지 17층) ",
        "capacity": 550,
        "traffic_info": "강남역 4번출구 도보 3분",
        "latitude": "37.639994",
        "longitude": "127.025381",
        "images": "imags_url"
      },
      "club_count": 12,
      "rating": {
        "avg_rating": 10,
        "count": 100
      }
    },
    {
      "building": {
        "id": 8,
        "location": "성남2호점",
        "region": "성남시",
        "city": "성남구",
        "street": "성남대로 382",
        "adress": "메리츠타워 17, 18층(메인라운지 17층) ",
        "capacity": 550,
        "traffic_info": "성남역 4번출구 도보 3분",
        "latitude": "37.405864",
        "longitude": "127.1421181",
        "images": "imags_url"
      },
      "club_count": 12,
      "rating": {
        "avg_rating": 10,
        "count": 100
      }
    },
    {
      "building": {
        "id": 9,
        "location": "성남3호점",
        "region": "서울시",
        "city": "성남구",
        "street": "성남대로 382",
        "adress": "메리츠타워 17, 18층(메인라운지 17층) ",
        "capacity": 550,
        "traffic_info": "성남역 4번출구 도보 3분",
        "latitude": "37.383508",
        "longitude": "126.961698",
        "images": "imags_url"
      },
      "club_count": 12,
      "rating": {
        "avg_rating": 10,
        "count": 100
      }
    },
    {
      "building": {
        "id": 10,
        "location": "서초1호점",
        "region": "서울시",
        "city": "서초구",
        "street": "서초대로 382",
        "adress": "메리츠타워 17, 18층(메인라운지 17층) ",
        "capacity": 550,
        "traffic_info": "서초역 4번출구 도보 3분",
        "latitude": "37.483590",
        "longitude": "127.032731",
        "images": "imags_url"
      },
      "club_count": 12,
      "rating": {
        "avg_rating": 10,
        "count": 100
      }
    },
    {
      "building": {
        "id": 11,
        "location": "서초11호점",
        "region": "서울시",
        "city": "서초구",
        "street": "서초대로 382",
        "adress": "메리츠타워 17, 18층(메인라운지 17층) ",
        "capacity": 550,
        "traffic_info": "서초역 4번출구 도보 3분",
        "latitude": "37.509882",
        "longitude": "126.994853",
        "images": "imags_url"
      },
      "club_count": 12,
      "rating": {
        "avg_rating": 10,
        "count": 100
      }
    },
    {
      "building": {
        "id": 2,
        "location": "서초2호점",
        "region": "서울시",
        "city": "서초구",
        "street": "서초대로 382",
        "adress": "메리츠타워 17, 18층(메인라운지 17층) ",
        "capacity": 550,
        "traffic_info": "서초역 4번출구 도보 3분",
        "latitude": "37.483493",
        "longitude": "127.030032",
        "images": "/images/office"
      },
      "club_count": 12,
      "rating": {
        "avg_rating": 10,
        "count": 100
      }
    },
    {
      "building": {
        "id": 9,
        "location": "서초9호점",
        "region": "서울시",
        "city": "서초구",
        "street": "서초대로 382",
        "adress": "메리츠타워 17, 18층(메인라운지 17층) ",
        "capacity": 550,
        "traffic_info": "서초역 4번출구 도보 3분",
        "latitude": "37.483493",
        "longitude": "127.030032",
        "images": "imags_url"
      },
      "club_count": 12,
      "rating": {
        "avg_rating": 10,
        "count": 100
      }
    },
    {
      "building": {
        "id": 12,
        "location": "서초12호점",
        "region": "서울시",
        "city": "서초구",
        "street": "서초대로 382",
        "adress": "메리츠타워 17, 18층(메인라운지 17층) ",
        "capacity": 550,
        "traffic_info": "서초역 4번출구 도보 3분",
        "latitude": "37.483493",
        "longitude": "127.030032",
        "images": "imags_url"
      },
      "club_count": 12,
      "rating": {
        "avg_rating": 10,
        "count": 100
      }
    }
  ]
}
